[
  { "city": "Paris", "country": "France", "lat": 48.8584, "lng": 2.2945 },
  { "city": "Tokyo", "country": "Japan", "lat": 35.6595, "lng": 139.7005 },
  { "city": "New York", "country": "USA", "lat": 40.758, "lng": -73.9855 },
  { "city": "Sydney", "country": "Australia", "lat": -33.8523, "lng": 151.2108 },
  { "city": "Rome", "country": "Italy", "lat": 41.8902, "lng": 12.4922 },
  { "city": "London", "country": "UK", "lat": 51.5007, "lng": -0.1246 },
  { "city": "Berlin", "country": "Germany", "lat": 52.52, "lng": 13.405 },
  { "city": "San Francisco", "country": "USA", "lat": 37.7749, "lng": -122.4194 },
  { "city": "Los Angeles", "country": "USA", "lat": 34.0522, "lng": -118.2437 },
  { "city": "Mexico City", "country": "Mexico", "lat": 19.4326, "lng": -99.1332 },
  { "city": "Madrid", "country": "Spain", "lat": 40.4168, "lng": -3.7038 },
  { "city": "Barcelona", "country": "Spain", "lat": 41.3851, "lng": 2.1734 },
  { "city": "Lisbon", "country": "Portugal", "lat": 38.7223, "lng": -9.1393 },
  { "city": "Amsterdam", "country": "Netherlands", "lat": 52.3676, "lng": 4.9041 },
  { "city": "Brussels", "country": "Belgium", "lat": 50.8503, "lng": 4.3517 },
  { "city": "Vienna", "country": "Austria", "lat": 48.2082, "lng": 16.3738 },
  { "city": "Prague", "country": "Czechia", "lat": 50.0755, "lng": 14.4378 },
  { "city": "Warsaw", "country": "Poland", "lat": 52.2297, "lng": 21.0122 },
  { "city": "Budapest", "country": "Hungary", "lat": 47.4979, "lng": 19.0402 },
  { "city": "Athens", "country": "Greece", "lat": 37.9838, "lng": 23.7275 },
  { "city": "Istanbul", "country": "Turkey", "lat": 41.0082, "lng": 28.9784 },
  { "city": "Cairo", "country": "Egypt", "lat": 30.0444, "lng": 31.2357 },
  { "city": "Cape Town", "country": "South Africa", "lat": -33.9249, "lng": 18.4241 },
  { "city": "Johannesburg", "country": "South Africa", "lat": -26.2041, "lng": 28.0473 },
  { "city": "Nairobi", "country": "Kenya", "lat": -1.2921, "lng": 36.8219 },
  { "city": "Lagos", "country": "Nigeria", "lat": 6.5244, "lng": 3.3792 },
  { "city": "Casablanca", "country": "Morocco", "lat": 33.5731, "lng": -7.5898 },
  { "city": "Dubai", "country": "UAE", "lat": 25.2048, "lng": 55.2708 },
  { "city": "Riyadh", "country": "Saudi Arabia", "lat": 24.7136, "lng": 46.6753 },
  { "city": "Doha", "country": "Qatar", "lat": 25.2854, "lng": 51.531 },
  { "city": "Mumbai", "country": "India", "lat": 19.076, "lng": 72.8777 },
  { "city": "Delhi", "country": "India", "lat": 28.6139, "lng": 77.209 },
  { "city": "Bengaluru", "country": "India", "lat": 12.9716, "lng": 77.5946 },
  { "city": "Kolkata", "country": "India", "lat": 22.5726, "lng": 88.3639 },
  { "city": "Bangkok", "country": "Thailand", "lat": 13.7563, "lng": 100.5018 },
  { "city": "Singapore", "country": "Singapore", "lat": 1.3521, "lng": 103.8198 },
  { "city": "Kuala Lumpur", "country": "Malaysia", "lat": 3.139, "lng": 101.6869 },
  { "city": "Jakarta", "country": "Indonesia", "lat": -6.2088, "lng": 106.8456 },
  { "city": "Manila", "country": "Philippines", "lat": 14.5995, "lng": 120.9842 },
  { "city": "Seoul", "country": "South Korea", "lat": 37.5665, "lng": 126.978 },
  { "city": "Hong Kong", "country": "China", "lat": 22.3193, "lng": 114.1694 },
  { "city": "Taipei", "country": "Taiwan", "lat": 25.033, "lng": 121.5654 },
  { "city": "Osaka", "country": "Japan", "lat": 34.6937, "lng": 135.5023 },
  { "city": "Kyoto", "country": "Japan", "lat": 35.0116, "lng": 135.7681 },
  { "city": "Beijing", "country": "China", "lat": 39.9042, "lng": 116.4074 },
  { "city": "Shanghai", "country": "China", "lat": 31.2304, "lng": 121.4737 },
  { "city": "Shenzhen", "country": "China", "lat": 22.5431, "lng": 114.0579 },
  { "city": "Guangzhou", "country": "China", "lat": 23.1291, "lng": 113.2644 },
  { "city": "Auckland", "country": "New Zealand", "lat": -36.8509, "lng": 174.7645 },
  { "city": "Wellington", "country": "New Zealand", "lat": -41.2865, "lng": 174.7762 },
  { "city": "Melbourne", "country": "Australia", "lat": -37.8136, "lng": 144.9631 },
  { "city": "Brisbane", "country": "Australia", "lat": -27.4698, "lng": 153.0251 },
  { "city": "Perth", "country": "Australia", "lat": -31.9505, "lng": 115.8605 },
  { "city": "Toronto", "country": "Canada", "lat": 43.6532, "lng": -79.3832 },
  { "city": "Vancouver", "country": "Canada", "lat": 49.2827, "lng": -123.1207 },
  { "city": "Montreal", "country": "Canada", "lat": 45.5017, "lng": -73.5673 },
  { "city": "Chicago", "country": "USA", "lat": 41.8781, "lng": -87.6298 },
  { "city": "Seattle", "country": "USA", "lat": 47.6062, "lng": -122.3321 },
  { "city": "Miami", "country": "USA", "lat": 25.7617, "lng": -80.1918 }
]
